[
  {
    "id": 703448,
    "name": "Kiev",
    "country": "UA",
    "coord": {
      "lon": 30.516666,
      "lat": 50.433334
    }
  },
  {
    "id": 706483,
    "name": "Kharkiv",
    "country": "UA",
    "coord": {
      "lon": 36.25,
      "lat": 50
    }
  },
  {
    "id": 702550,
    "name": "Lviv",
    "country": "UA",
    "coord": {
      "lon": 24.023239,
      "lat": 49.838261
    }
  },
  {
    "id": 698740,
    "name": "Odessa",
    "country": "UA",
    "coord": {
      "lon": 30.732622,
      "lat": 46.477474
    }
  },
  {
    "id": 565348,
    "name": "Donetsk",
    "country": "RU",
    "coord": {
      "lon": 39.947762,
      "lat": 48.333721
    }
  },
  {
    "id": 709930,
    "name": "Dnipropetrovsk",
    "country": "UA",
    "coord": {
      "lon": 34.98333,
      "lat": 48.450001
    }
  },
  {
    "id": 707860,
    "name": "Hurzuf",
    "country": "UA",
    "coord": {
      "lon": 34.283333,
      "lat": 44.549999
    }
  }
]